[
    {
        "cca2": "GH",
        "cf_lb_region": "NAF",
        "city": "Accra",
        "country": "Ghana",
        "iata": "ACC",
        "lat": 5.60519,
        "lon": -0.166786,
        "name": "Accra, Ghana",
        "region": "Africa"
    },
    {
        "cca2": "DZ",
        "cf_lb_region": "NAF",
        "city": "Algiers",
        "country": "Algeria",
        "iata": "ALG",
        "lat": 36.691,
        "lon": 3.21541,
        "name": "Algiers, Algeria",
        "region": "Africa"
    },
    {
        "cca2": "DZ",
        "cf_lb_region": "NAF",
        "city": "Annaba",
        "country": "Algeria",
        "iata": "AAE",
        "lat": 36.8222,
        "lon": 7.80917,
        "name": "Annaba, Algeria",
        "region": "Africa"
    },
    {
        "cca2": "MG",
        "cf_lb_region": "SAF",
        "city": "Antananarivo",
        "country": "Madagascar",
        "iata": "TNR",
        "lat": -18.7969,
        "lon": 47.4788,
        "name": "Antananarivo, Madagascar",
        "region": "Africa"
    },
    {
        "cca2": "ZA",
        "cf_lb_region": "SAF",
        "city": "Cape Town",
        "country": "South Africa",
        "iata": "CPT",
        "lat": -33.9648,
        "lon": 18.6017,
        "name": "Cape Town, South Africa",
        "region": "Africa"
    },
    {
        "cca2": "SN",
        "cf_lb_region": "NAF",
        "city": "Dakar",
        "country": "Senegal",
        "iata": "DKR",
        "lat": 14.7397,
        "lon": -17.4902,
        "name": "Dakar, Senegal",
        "region": "Africa"
    },
    {
        "cca2": "TZ",
        "cf_lb_region": "SAF",
        "city": "Dar es Salaam",
        "country": "Tanzania",
        "iata": "DAR",
        "lat": -6.87811,
        "lon": 39.2026,
        "name": "Dar es Salaam, Tanzania",
        "region": "Africa"
    },
    {
        "cca2": "DJ",
        "cf_lb_region": "NAF",
        "city": "Djibouti",
        "country": "Djibouti",
        "iata": "JIB",
        "lat": 11.5473,
        "lon": 43.1595,
        "name": "Djibouti, Djibouti",
        "region": "Africa"
    },
    {
        "cca2": "ZA",
        "cf_lb_region": "SAF",
        "city": "Durban",
        "country": "South Africa",
        "iata": "DUR",
        "lat": -29.6144,
        "lon": 31.1197,
        "name": "Durban, South Africa",
        "region": "Africa"
    },
    {
        "cca2": "BW",
        "cf_lb_region": "SAF",
        "city": "Gaborone",
        "country": "Botswana",
        "iata": "GBE",
        "lat": -24.5552,
        "lon": 25.9182,
        "name": "Gaborone, Botswana",
        "region": "Africa"
    },
    {
        "cca2": "ZW",
        "cf_lb_region": "SAF",
        "city": "Harare",
        "country": "Zimbabwe",
        "iata": "HRE",
        "lat": -17.9318,
        "lon": 31.0928,
        "name": "Harare, Zimbabwe",
        "region": "Africa"
    },
    {
        "cca2": "ZA",
        "cf_lb_region": "SAF",
        "city": "Johannesburg",
        "country": "South Africa",
        "iata": "JNB",
        "lat": -26.1392,
        "lon": 28.246,
        "name": "Johannesburg, South Africa",
        "region": "Africa"
    },
    {
        "cca2": "RW",
        "cf_lb_region": "SAF",
        "city": "Kigali",
        "country": "Rwanda",
        "iata": "KGL",
        "lat": -1.96863,
        "lon": 30.1395,
        "name": "Kigali, Rwanda",
        "region": "Africa"
    },
    {
        "cca2": "NG",
        "cf_lb_region": "NAF",
        "city": "Lagos",
        "country": "Nigeria",
        "iata": "LOS",
        "lat": 6.57737,
        "lon": 3.32116,
        "name": "Lagos, Nigeria",
        "region": "Africa"
    },
    {
        "cca2": "AO",
        "cf_lb_region": "SAF",
        "city": "Luanda",
        "country": "Angola",
        "iata": "LAD",
        "lat": -8.85837,
        "lon": 13.2312,
        "name": "Luanda, Angola",
        "region": "Africa"
    },
    {
        "cca2": "MZ",
        "cf_lb_region": "SAF",
        "city": "Maputo",
        "country": "Mozambique",
        "iata": "MPM",
        "lat": -25.9208,
        "lon": 32.5726,
        "name": "Maputo, Mozambique",
        "region": "Africa"
    },
    {
        "cca2": "KE",
        "cf_lb_region": "SAF",
        "city": "Mombasa",
        "country": "Kenya",
        "iata": "MBA",
        "lat": -4.03483,
        "lon": 39.5942,
        "name": "Mombasa, Kenya",
        "region": "Africa"
    },
    {
        "cca2": "KE",
        "cf_lb_region": "SAF",
        "city": "Nairobi",
        "country": "Kenya",
        "iata": "NBO",
        "lat": -1.31924,
        "lon": 36.9278,
        "name": "Nairobi, Kenya",
        "region": "Africa"
    },
    {
        "cca2": "DZ",
        "cf_lb_region": "NAF",
        "city": "Oran",
        "country": "Algeria",
        "iata": "ORN",
        "lat": 35.6239,
        "lon": -0.621183,
        "name": "Oran, Algeria",
        "region": "Africa"
    },
    {
        "cca2": "BF",
        "cf_lb_region": "NAF",
        "city": "Ouagadougou",
        "country": "Burkina Faso",
        "iata": "OUA",
        "lat": 12.3532,
        "lon": -1.51242,
        "name": "Ouagadougou, Burkina Faso",
        "region": "Africa"
    },
    {
        "cca2": "MU",
        "cf_lb_region": "SAF",
        "city": "Port Louis",
        "country": "Mauritius",
        "iata": "MRU",
        "lat": -20.4302,
        "lon": 57.6836,
        "name": "Port Louis, Mauritius",
        "region": "Africa"
    },
    {
        "cca2": "TN",
        "cf_lb_region": "NAF",
        "city": "Tunis",
        "country": "Tunisia",
        "iata": "TUN",
        "lat": 36.8511,
        "lon": 10.2272,
        "name": "Tunis, Tunisia",
        "region": "Africa"
    },
    {
        "cca2": "CD",
        "cf_lb_region": "SAF",
        "city": "Kinshasa",
        "country": "DR Congo",
        "iata": "FIH",
        "lat": -4.38575,
        "lon": 15.4446,
        "name": "Kinshasa, DR Congo",
        "region": "Africa"
    },
    {
        "cca2": "EG",
        "cf_lb_region": "NAF",
        "city": "Cairo",
        "country": "Egypt",
        "iata": "CAI",
        "lat": 30.1219,
        "lon": 31.4056,
        "name": "Cairo, Egypt",
        "region": "Africa"
    },
    {
        "cca2": "NA",
        "cf_lb_region": "SAF",
        "city": "Windhoek",
        "country": "Namibia",
        "iata": "WDH",
        "lat": -22.4799,
        "lon": 17.4709,
        "name": "Windhoek, Namibia",
        "region": "Africa"
    },
    {
        "cca2": "CI",
        "cf_lb_region": "NAF",
        "city": "Yamoussoukro",
        "country": "Ivory Coast",
        "iata": "ASK",
        "lat": 6.90317,
        "lon": -5.36558,
        "name": "Yamoussoukro, Ivory Coast",
        "region": "Africa"
    },
    {
        "cca2": "CI",
        "cf_lb_region": "NAF",
        "city": "Abidjan",
        "country": "Ivory Coast",
        "iata": "ABJ",
        "lat": 5.26139,
        "lon": -3.92629,
        "name": "Abidjan, Ivory Coast",
        "region": "Africa"
    },
    {
        "cca2": "UG",
        "cf_lb_region": "SAF",
        "city": "Kampala",
        "country": "Uganda",
        "iata": "EBB",
        "lat": 0.042386,
        "lon": 32.4435,
        "name": "Kampala, Uganda",
        "region": "Africa"
    },
    {
        "cca2": "RE",
        "cf_lb_region": "SAF",
        "city": "Saint-Denis",
        "country": "Reunion",
        "iata": "RUN",
        "lat": -20.8871,
        "lon": 55.5103,
        "name": "Saint-Denis, Reunion",
        "region": "Africa"
    },
    {
        "cca2": "ZM",
        "cf_lb_region": "SAF",
        "city": "Lusaka",
        "country": "Zambia",
        "iata": "LUN",
        "lat": -15.3308,
        "lon": 28.4526,
        "name": "Lusaka, Zambia",
        "region": "Africa"
    },
    {
        "cca2": "ET",
        "cf_lb_region": "NAF",
        "city": "Addis Ababa",
        "country": "Ethiopia",
        "iata": "ADD",
        "lat": 8.97778,
        "lon": 38.7994,
        "name": "Addis Ababa, Ethiopia",
        "region": "Africa"
    },
    {
        "cca2": "MW",
        "cf_lb_region": "SAF",
        "city": "Lilongwe",
        "country": "Malawi",
        "iata": "LLW",
        "lat": -13.7894,
        "lon": 33.781,
        "name": "Lilongwe, Malawi",
        "region": "Africa"
    },
    {
        "cca2": "DZ",
        "cf_lb_region": "NAF",
        "city": "Constantine",
        "country": "Algeria",
        "iata": "CZL",
        "lat": 36.276,
        "lon": 6.62039,
        "name": "Constantine, Algeria",
        "region": "Africa"
    }
]