[
    {
        "cca2": "IN",
        "cf_lb_region": "SAS",
        "city": "Ahmedabad",
        "country": "India",
        "iata": "AMD",
        "lat": 23.0772,
        "lon": 72.6347,
        "name": "Ahmedabad, India",
        "region": "Asia"
    },
    {
        "cca2": "KZ",
        "cf_lb_region": "SAS",
        "city": "Almaty",
        "country": "Kazakhstan",
        "iata": "ALA",
        "lat": 43.3521,
        "lon": 77.0405,
        "name": "Almaty, Kazakhstan",
        "region": "Asia"
    },
    {
        "cca2": "IN",
        "cf_lb_region": "SAS",
        "city": "Bangalore",
        "country": "India",
        "iata": "BLR",
        "lat": 13.1979,
        "lon": 77.7063,
        "name": "Bangalore, India",
        "region": "Asia"
    },
    {
        "cca2": "TH",
        "cf_lb_region": "SEAS",
        "city": "Bangkok",
        "country": "Thailand",
        "iata": "BKK",
        "lat": 13.6811,
        "lon": 100.747,
        "name": "Bangkok, Thailand",
        "region": "Asia"
    },
    {
        "cca2": "BN",
        "cf_lb_region": "SEAS",
        "city": "Bandar Seri Begawan",
        "country": "Brunei",
        "iata": "BWN",
        "lat": 4.9442,
        "lon": 114.928,
        "name": "Bandar Seri Begawan, Brunei",
        "region": "Asia"
    },
    {
        "cca2": "PH",
        "cf_lb_region": "SEAS",
        "city": "Cebu",
        "country": "Philippines",
        "iata": "CEB",
        "lat": 10.3075,
        "lon": 123.979,
        "name": "Cebu, Philippines",
        "region": "Asia"
    },
    {
        "cca2": "IN",
        "cf_lb_region": "SAS",
        "city": "Chandigarh",
        "country": "India",
        "iata": "IXC",
        "lat": 30.6735,
        "lon": 76.7885,
        "name": "Chandigarh, India",
        "region": "Asia"
    },
    {
        "cca2": "CN",
        "cf_lb_region": "NEAS",
        "city": "Changde",
        "country": "China",
        "iata": "CGD",
        "lat": 28.9189,
        "lon": 111.64,
        "name": "Changde, China",
        "region": "Asia"
    },
    {
        "cca2": "IN",
        "cf_lb_region": "SAS",
        "city": "Chennai",
        "country": "India",
        "iata": "MAA",
        "lat": 12.99,
        "lon": 80.1693,
        "name": "Chennai, India",
        "region": "Asia"
    },
    {
        "cca2": "BD",
        "cf_lb_region": "SEAS",
        "city": "Chittagong",
        "country": "Bangladesh",
        "iata": "CGP",
        "lat": 22.2496,
        "lon": 91.8133,
        "name": "Chittagong, Bangladesh",
        "region": "Asia"
    },
    {
        "cca2": "LK",
        "cf_lb_region": "SAS",
        "city": "Colombo",
        "country": "Sri Lanka",
        "iata": "CMB",
        "lat": 7.18076,
        "lon": 79.8841,
        "name": "Colombo, Sri Lanka",
        "region": "Asia"
    },
    {
        "cca2": "BD",
        "cf_lb_region": "SEAS",
        "city": "Dhaka",
        "country": "Bangladesh",
        "iata": "DAC",
        "lat": 23.8433,
        "lon": 90.3978,
        "name": "Dhaka, Bangladesh",
        "region": "Asia"
    },
    {
        "cca2": "CN",
        "cf_lb_region": "NEAS",
        "city": "Foshan",
        "country": "China",
        "iata": "FUO",
        "lat": 23.0833,
        "lon": 113.07,
        "name": "Foshan, China",
        "region": "Asia"
    },
    {
        "cca2": "JP",
        "cf_lb_region": "NEAS",
        "city": "Fukuoka",
        "country": "Japan",
        "iata": "FUK",
        "lat": 33.5859,
        "lon": 130.451,
        "name": "Fukuoka, Japan",
        "region": "Asia"
    },
    {
        "cca2": "CN",
        "cf_lb_region": "NEAS",
        "city": "Fuzhou",
        "country": "China",
        "iata": "FOC",
        "lat": 25.9351,
        "lon": 119.663,
        "name": "Fuzhou, China",
        "region": "Asia"
    },
    {
        "cca2": "CN",
        "cf_lb_region": "NEAS",
        "city": "Guangzhou",
        "country": "China",
        "iata": "CAN",
        "lat": 23.3924,
        "lon": 113.299,
        "name": "Guangzhou, China",
        "region": "Asia"
    },
    {
        "cca2": "CN",
        "cf_lb_region": "NEAS",
        "city": "Chengmai",
        "country": "China",
        "iata": "HAK",
        "lat": 19.9349,
        "lon": 110.459,
        "name": "Chengmai, China",
        "region": "Asia"
    },
    {
        "cca2": "VN",
        "cf_lb_region": "SEAS",
        "city": "Hanoi",
        "country": "Vietnam",
        "iata": "HAN",
        "lat": 21.2212,
        "lon": 105.807,
        "name": "Hanoi, Vietnam",
        "region": "Asia"
    },
    {
        "cca2": "CN",
        "cf_lb_region": "NEAS",
        "city": "Shijiazhuang",
        "country": "China",
        "iata": "SJW",
        "lat": 38.2807,
        "lon": 114.697,
        "name": "Shijiazhuang, China",
        "region": "Asia"
    },
    {
        "cca2": "VN",
        "cf_lb_region": "SEAS",
        "city": "Ho Chi Minh City",
        "country": "Vietnam",
        "iata": "SGN",
        "lat": 10.8188,
        "lon": 106.652,
        "name": "Ho Chi Minh City, Vietnam",
        "region": "Asia"
    },
    {
        "cca2": "CN",
        "cf_lb_region": "NEAS",
        "city": "Hong Kong",
        "country": "China",
        "iata": "HKG",
        "lat": 22.3089,
        "lon": 113.915,
        "name": "Hong Kong",
        "region": "Asia"
    },
    {
        "cca2": "IN",
        "cf_lb_region": "SAS",
        "city": "Hyderabad",
        "country": "India",
        "iata": "HYD",
        "lat": 17.2313,
        "lon": 78.4299,
        "name": "Hyderabad, India",
        "region": "Asia"
    },
    {
        "cca2": "PK",
        "cf_lb_region": "SAS",
        "city": "Islamabad",
        "country": "Pakistan",
        "iata": "ISB",
        "lat": 33.5607,
        "lon": 72.8516,
        "name": "Islamabad, Pakistan",
        "region": "Asia"
    },
    {
        "cca2": "ID",
        "cf_lb_region": "SEAS",
        "city": "Jakarta",
        "country": "Indonesia",
        "iata": "CGK",
        "lat": -6.12556,
        "lon": 106.656,
        "name": "Jakarta, Indonesia",
        "region": "Asia"
    },
    {
        "cca2": "CN",
        "cf_lb_region": "NEAS",
        "city": "Zibo",
        "country": "China",
        "iata": "TNA",
        "lat": 36.8572,
        "lon": 117.216,
        "name": "Zibo, China",
        "region": "Asia"
    },
    {
        "cca2": "MY",
        "cf_lb_region": "SEAS",
        "city": "Johor Bahru",
        "country": "Malaysia",
        "iata": "JHB",
        "lat": 1.64131,
        "lon": 103.67,
        "name": "Johor Bahru, Malaysia",
        "region": "Asia"
    },
    {
        "cca2": "IN",
        "cf_lb_region": "SAS",
        "city": "Kanpur",
        "country": "India",
        "iata": "KNU",
        "lat": 26.4043,
        "lon": 80.4101,
        "name": "Kanpur, India",
        "region": "Asia"
    },
    {
        "cca2": "TW",
        "cf_lb_region": "NEAS",
        "city": "Kaohsiung City",
        "country": "Taiwan",
        "iata": "KHH",
        "lat": 22.5771,
        "lon": 120.35,
        "name": "Kaohsiung City, Taiwan",
        "region": "Asia"
    },
    {
        "cca2": "PK",
        "cf_lb_region": "SAS",
        "city": "Karachi",
        "country": "Pakistan",
        "iata": "KHI",
        "lat": 24.9065,
        "lon": 67.1608,
        "name": "Karachi, Pakistan",
        "region": "Asia"
    },
    {
        "cca2": "NP",
        "cf_lb_region": "SAS",
        "city": "Kathmandu",
        "country": "Nepal",
        "iata": "KTM",
        "lat": 27.6966,
        "lon": 85.3591,
        "name": "Kathmandu, Nepal",
        "region": "Asia"
    },
    {
        "cca2": "IN",
        "cf_lb_region": "SAS",
        "city": "Kolkata",
        "country": "India",
        "iata": "CCU",
        "lat": 22.6547,
        "lon": 88.4467,
        "name": "Kolkata, India",
        "region": "Asia"
    },
    {
        "cca2": "RU",
        "cf_lb_region": "SAS",
        "city": "Krasnoyarsk",
        "country": "Russia",
        "iata": "KJA",
        "lat": 56.1729,
        "lon": 92.4933,
        "name": "Krasnoyarsk, Russia",
        "region": "Asia"
    },
    {
        "cca2": "MY",
        "cf_lb_region": "SEAS",
        "city": "Kuala Lumpur",
        "country": "Malaysia",
        "iata": "KUL",
        "lat": 2.74558,
        "lon": 101.71,
        "name": "Kuala Lumpur, Malaysia",
        "region": "Asia"
    },
    {
        "cca2": "CN",
        "cf_lb_region": "NEAS",
        "city": "Langfang",
        "country": "China",
        "iata": "PKX",
        "lat": 39.5101,
        "lon": 116.4101,
        "name": "Langfang, China",
        "region": "Asia"
    },
    {
        "cca2": "CN",
        "cf_lb_region": "NEAS",
        "city": "Macau",
        "country": "China",
        "iata": "MFM",
        "lat": 22.1496,
        "lon": 113.592,
        "name": "Macau",
        "region": "Asia"
    },
    {
        "cca2": "MV",
        "cf_lb_region": "SAS",
        "city": "Male",
        "country": "Maldives",
        "iata": "MLE",
        "lat": 4.19183,
        "lon": 73.5291,
        "name": "Male, Maldives",
        "region": "Asia"
    },
    {
        "cca2": "PH",
        "cf_lb_region": "SEAS",
        "city": "Manila",
        "country": "Philippines",
        "iata": "MNL",
        "lat": 14.5086,
        "lon": 121.02,
        "name": "Manila, Philippines",
        "region": "Asia"
    },
    {
        "cca2": "IN",
        "cf_lb_region": "SAS",
        "city": "Mumbai",
        "country": "India",
        "iata": "BOM",
        "lat": 19.0887,
        "lon": 72.8679,
        "name": "Mumbai, India",
        "region": "Asia"
    },
    {
        "cca2": "IN",
        "cf_lb_region": "SAS",
        "city": "Nagpur",
        "country": "India",
        "iata": "NAG",
        "lat": 21.0922,
        "lon": 79.0472,
        "name": "Nagpur, India",
        "region": "Asia"
    },
    {
        "cca2": "JP",
        "cf_lb_region": "NEAS",
        "city": "Naha",
        "country": "Japan",
        "iata": "OKA",
        "lat": 26.1958,
        "lon": 127.646,
        "name": "Naha, Japan",
        "region": "Asia"
    },
    {
        "cca2": "IN",
        "cf_lb_region": "SAS",
        "city": "New Delhi",
        "country": "India",
        "iata": "DEL",
        "lat": 28.5665,
        "lon": 77.1031,
        "name": "New Delhi, India",
        "region": "Asia"
    },
    {
        "cca2": "JP",
        "cf_lb_region": "NEAS",
        "city": "Osaka",
        "country": "Japan",
        "iata": "KIX",
        "lat": 34.4305,
        "lon": 135.23,
        "name": "Osaka, Japan",
        "region": "Asia"
    },
    {
        "cca2": "IN",
        "cf_lb_region": "SAS",
        "city": "Patna",
        "country": "India",
        "iata": "PAT",
        "lat": 25.5913,
        "lon": 85.088,
        "name": "Patna, India",
        "region": "Asia"
    },
    {
        "cca2": "KH",
        "cf_lb_region": "SEAS",
        "city": "Phnom Penh",
        "country": "Cambodia",
        "iata": "PNH",
        "lat": 11.5466,
        "lon": 104.844,
        "name": "Phnom Penh, Cambodia",
        "region": "Asia"
    },
    {
        "cca2": "CN",
        "cf_lb_region": "NEAS",
        "city": "Qingdao",
        "country": "China",
        "iata": "TAO",
        "lat": 36.2661,
        "lon": 120.374,
        "name": "Qingdao, China",
        "region": "Asia"
    },
    {
        "cca2": "KR",
        "cf_lb_region": "NEAS",
        "city": "Seoul",
        "country": "South Korea",
        "iata": "ICN",
        "lat": 37.4633,
        "lon": 126.44,
        "name": "Seoul, South Korea",
        "region": "Asia"
    },
    {
        "cca2": "CN",
        "cf_lb_region": "NEAS",
        "city": "Shanghai",
        "country": "China",
        "iata": "SHA",
        "lat": 31.1979,
        "lon": 121.336,
        "name": "Shanghai, China",
        "region": "Asia"
    },
    {
        "cca2": "SG",
        "cf_lb_region": "SEAS",
        "city": "Singapore",
        "country": "Singapore",
        "iata": "SIN",
        "lat": 1.35019,
        "lon": 103.994,
        "name": "Singapore, Singapore",
        "region": "Asia"
    },
    {
        "cca2": "TH",
        "cf_lb_region": "SEAS",
        "city": "Surat Thani",
        "country": "Thailand",
        "iata": "URT",
        "lat": 9.1326,
        "lon": 99.1356,
        "name": "Surat Thani, Thailand",
        "region": "Asia"
    },
    {
        "cca2": "TW",
        "cf_lb_region": "NEAS",
        "city": "Taipei",
        "country": "Taiwan",
        "iata": "TPE",
        "lat": 25.0777,
        "lon": 121.233,
        "name": "Taipei",
        "region": "Asia"
    },
    {
        "cca2": "JP",
        "cf_lb_region": "NEAS",
        "city": "Tokyo",
        "country": "Japan",
        "iata": "NRT",
        "lat": 35.7653,
        "lon": 140.386,
        "name": "Tokyo, Japan",
        "region": "Asia"
    },
    {
        "cca2": "MN",
        "cf_lb_region": "NEAS",
        "city": "Ulaanbaatar",
        "country": "Mongolia",
        "iata": "ULN",
        "lat": 47.8431,
        "lon": 106.767,
        "name": "Ulaanbaatar, Mongolia",
        "region": "Asia"
    },
    {
        "cca2": "LA",
        "cf_lb_region": "SEAS",
        "city": "Vientiane",
        "country": "Laos",
        "iata": "VTE",
        "lat": 17.9883,
        "lon": 102.563,
        "name": "Vientiane, Laos",
        "region": "Asia"
    },
    {
        "cca2": "CN",
        "cf_lb_region": "NEAS",
        "city": "Nanchang",
        "country": "China",
        "iata": "KHN",
        "lat": 28.865,
        "lon": 115.9,
        "name": "Nanchang, China",
        "region": "Asia"
    },
    {
        "cca2": "AM",
        "cf_lb_region": "ME",
        "city": "Yerevan",
        "country": "Armenia",
        "iata": "EVN",
        "lat": 40.1473,
        "lon": 44.3959,
        "name": "Yerevan, Armenia",
        "region": "Asia"
    },
    {
        "cca2": "ID",
        "cf_lb_region": "SEAS",
        "city": "Yogyakarta",
        "country": "Indonesia",
        "iata": "JOG",
        "lat": -7.78818,
        "lon": 110.432,
        "name": "Yogyakarta, Indonesia",
        "region": "Asia"
    },
    {
        "cca2": "PH",
        "cf_lb_region": "SEAS",
        "city": "Cagayan de Oro",
        "country": "Philippines",
        "iata": "CGY",
        "lat": 8.6122,
        "lon": 124.456,
        "name": "Cagayan de Oro, Philippines",
        "region": "Asia"
    },
    {
        "cca2": "IN",
        "cf_lb_region": "SAS",
        "city": "Kochi",
        "country": "India",
        "iata": "COK",
        "lat": 10.152,
        "lon": 76.4019,
        "name": "Kochi, India",
        "region": "Asia"
    },
    {
        "cca2": "ID",
        "cf_lb_region": "SEAS",
        "city": "Denpasar",
        "country": "Indonesia",
        "iata": "DPS",
        "lat": -8.74817,
        "lon": 115.167,
        "name": "Denpasar, Indonesia",
        "region": "Asia"
    },
    {
        "cca2": "IN",
        "cf_lb_region": "SAS",
        "city": "Kannur",
        "country": "India",
        "iata": "CNN",
        "lat": 11.9186,
        "lon": 75.5472,
        "name": "Kannur, India",
        "region": "Asia"
    },
    {
        "cca2": "CN",
        "cf_lb_region": "NEAS",
        "city": "Shenzhen",
        "country": "China",
        "iata": "SZX",
        "lat": 22.6393,
        "lon": 113.811,
        "name": "Shenzhen, China",
        "region": "Asia"
    },
    {
        "cca2": "CN",
        "cf_lb_region": "NEAS",
        "city": "Guiyang",
        "country": "China",
        "iata": "KWE",
        "lat": 26.5385,
        "lon": 106.801,
        "name": "Guiyang, China",
        "region": "Asia"
    },
    {
        "cca2": "CN",
        "cf_lb_region": "NEAS",
        "city": "Shaoxing",
        "country": "China",
        "iata": "HGH",
        "lat": 30.2295,
        "lon": 120.434,
        "name": "Shaoxing, China",
        "region": "Asia"
    },
    {
        "cca2": "CN",
        "cf_lb_region": "NEAS",
        "city": "Changzhou",
        "country": "China",
        "iata": "CZX",
        "lat": 31.9197,
        "lon": 119.779,
        "name": "Changzhou, China",
        "region": "Asia"
    },
    {
        "cca2": "CN",
        "cf_lb_region": "NEAS",
        "city": "Kunming",
        "country": "China",
        "iata": "KMG",
        "lat": 25.1019,
        "lon": 102.929,
        "name": "Kunming, China",
        "region": "Asia"
    },
    {
        "cca2": "TH",
        "cf_lb_region": "SEAS",
        "city": "Chiang Mai",
        "country": "Thailand",
        "iata": "CNX",
        "lat": 18.7668,
        "lon": 98.9626,
        "name": "Chiang Mai, Thailand",
        "region": "Asia"
    },
    {
        "cca2": "CN",
        "cf_lb_region": "NEAS",
        "city": "Zhengzhou",
        "country": "China",
        "iata": "CGO",
        "lat": 34.5197,
        "lon": 113.841,
        "name": "Zhengzhou, China",
        "region": "Asia"
    },
    {
        "cca2": "CN",
        "cf_lb_region": "NEAS",
        "city": "Yangquan",
        "country": "China",
        "iata": "TYN",
        "lat": 37.7469,
        "lon": 112.628,
        "name": "Yangquan, China",
        "region": "Asia"
    },
    {
        "cca2": "CN",
        "cf_lb_region": "NEAS",
        "city": "Changsha",
        "country": "China",
        "iata": "CSX",
        "lat": 28.1892,
        "lon": 113.22,
        "name": "Changsha, China",
        "region": "Asia"
    },
    {
        "cca2": "CN",
        "cf_lb_region": "NEAS",
        "city": "Dalian",
        "country": "China",
        "iata": "DLC",
        "lat": 38.9657,
        "lon": 121.539,
        "name": "Dalian, China",
        "region": "Asia"
    },
    {
        "cca2": "CN",
        "cf_lb_region": "NEAS",
        "city": "Beihai",
        "country": "China",
        "iata": "BHY",
        "lat": 21.5394,
        "lon": 109.294,
        "name": "Beihai, China",
        "region": "Asia"
    },
    {
        "cca2": "CN",
        "cf_lb_region": "NEAS",
        "city": "Chongqing",
        "country": "China",
        "iata": "CKG",
        "lat": 29.7192,
        "lon": 106.642,
        "name": "Chongqing, China",
        "region": "Asia"
    },
    {
        "cca2": "CN",
        "cf_lb_region": "NEAS",
        "city": "Xiangyang",
        "country": "China",
        "iata": "XFN",
        "lat": 32.1506,
        "lon": 112.291,
        "name": "Xiangyang, China",
        "region": "Asia"
    },
    {
        "cca2": "VN",
        "cf_lb_region": "SEAS",
        "city": "Da Nang",
        "country": "Vietnam",
        "iata": "DAD",
        "lat": 16.0439,
        "lon": 108.199,
        "name": "Da Nang, Vietnam",
        "region": "Asia"
    },
    {
        "cca2": "CN",
        "cf_lb_region": "NEAS",
        "city": "Jiaxing",
        "country": "China",
        "iata": "JXG",
        "lat": 30.7067,
        "lon": 120.6806,
        "name": "Jiaxing, China",
        "region": "Asia"
    },
    {
        "cca2": "PH",
        "cf_lb_region": "SEAS",
        "city": "Tarlac City",
        "country": "Philippines",
        "iata": "CRK",
        "lat": 15.186,
        "lon": 120.56,
        "name": "Tarlac City, Philippines",
        "region": "Asia"
    },
    {
        "cca2": "BT",
        "cf_lb_region": "SEAS",
        "city": "Thimphu",
        "country": "Bhutan",
        "iata": "PBH",
        "lat": 27.4032,
        "lon": 89.4246,
        "name": "Thimphu, Bhutan",
        "region": "Asia"
    },
    {
        "cca2": "CN",
        "cf_lb_region": "NEAS",
        "city": "Baoji",
        "country": "China",
        "iata": "XIY",
        "lat": 34.4471,
        "lon": 108.752,
        "name": "Baoji, China",
        "region": "Asia"
    },
    {
        "cca2": "KZ",
        "cf_lb_region": "SAS",
        "city": "Astana",
        "country": "Kazakhstan",
        "iata": "NQZ",
        "lat": 51.0222,
        "lon": 71.4669,
        "name": "Astana, Kazakhstan",
        "region": "Asia"
    },
    {
        "cca2": "MY",
        "cf_lb_region": "SEAS",
        "city": "Kuching",
        "country": "Malaysia",
        "iata": "KCH",
        "lat": 1.4847,
        "lon": 110.347,
        "name": "Kuching, Malaysia",
        "region": "Asia"
    },
    {
        "cca2": "KZ",
        "cf_lb_region": "SAS",
        "city": "Aktobe",
        "country": "Kazakhstan",
        "iata": "AKX",
        "lat": 50.2458,
        "lon": 57.2067,
        "name": "Aktobe, Kazakhstan",
        "region": "Asia"
    },
    {
        "cca2": "CN",
        "cf_lb_region": "NEAS",
        "city": "Tongren",
        "country": "China",
        "iata": "TEN",
        "lat": 27.8833,
        "lon": 109.309,
        "name": "Tongren, China",
        "region": "Asia"
    },
    {
        "cca2": "CN",
        "cf_lb_region": "NEAS",
        "city": "Taizhou",
        "country": "China",
        "iata": "HYN",
        "lat": 28.5622,
        "lon": 121.429,
        "name": "Taizhou, China",
        "region": "Asia"
    },
    {
        "cca2": "KG",
        "cf_lb_region": "SAS",
        "city": "Bishkek",
        "country": "Kyrgyzstan",
        "iata": "FRU",
        "lat": 43.0613,
        "lon": 74.4776,
        "name": "Bishkek, Kyrgyzstan",
        "region": "Asia"
    },
    {
        "cca2": "ID",
        "cf_lb_region": "SEAS",
        "city": "Malang",
        "country": "Indonesia",
        "iata": "MLG",
        "lat": -7.92656,
        "lon": 112.715,
        "name": "Malang, Indonesia",
        "region": "Asia"
    },
    {
        "cca2": "PK",
        "cf_lb_region": "SAS",
        "city": "Lahore",
        "country": "Pakistan",
        "iata": "LHE",
        "lat": 31.5216,
        "lon": 74.4036,
        "name": "Lahore, Pakistan",
        "region": "Asia"
    },
    {
        "cca2": "CN",
        "cf_lb_region": "NEAS",
        "city": "Chengdu",
        "country": "China",
        "iata": "CTU",
        "lat": 30.5785,
        "lon": 103.947,
        "name": "Chengdu, China",
        "region": "Asia"
    },
    {
        "cca2": "IN",
        "cf_lb_region": "SAS",
        "city": "Agra",
        "country": "India",
        "iata": "AGR",
        "lat": 27.1558,
        "lon": 77.9609,
        "name": "Agra, India",
        "region": "Asia"
    },
    {
        "cca2": "IN",
        "cf_lb_region": "SAS",
        "city": "Coimbatore",
        "country": "India",
        "iata": "CJB",
        "lat": 11.03,
        "lon": 77.0434,
        "name": "Coimbatore, India",
        "region": "Asia"
    }
]