[
    {
        "cca2": "RU",
        "cf_lb_region": "SAS",
        "city": "Yekaterinburg",
        "country": "Russia",
        "iata": "SVX",
        "lat": 56.8431,
        "lon": 60.6454,
        "name": "Yekaterinburg, Russia",
        "region": "Asia Pacific"
    },
    {
        "cca2": "GU",
        "cf_lb_region": "SEAS",
        "city": "Hagatna",
        "country": "Guam",
        "iata": "GUM",
        "lat": 13.4834003448,
        "lon": 144.796005249,
        "name": "Hagatna, Guam",
        "region": "Asia Pacific"
    },
    {
        "cca2": "IN",
        "cf_lb_region": "SAS",
        "city": "Ahmedabad",
        "country": "India",
        "iata": "AMD",
        "lat": 23.0225,
        "lon": 72.5714,
        "name": "Ahmedabad, India",
        "region": "Asia Pacific"
    },
    {
        "cca2": "KZ",
        "cf_lb_region": "SAS",
        "city": "Almaty",
        "country": "Kazakhstan",
        "iata": "ALA",
        "lat": 43.3521003723,
        "lon": 77.0404968262,
        "name": "Almaty, Kazakhstan",
        "region": "Asia Pacific"
    },
    {
        "cca2": "IN",
        "cf_lb_region": "SAS",
        "city": "Bangalore",
        "country": "India",
        "iata": "BLR",
        "lat": 13.7835719,
        "lon": 76.6165937,
        "name": "Bangalore, India",
        "region": "Asia Pacific"
    },
    {
        "cca2": "TH",
        "cf_lb_region": "SEAS",
        "city": "Bangkok",
        "country": "Thailand",
        "iata": "BKK",
        "lat": 13.6810998917,
        "lon": 100.747001648,
        "name": "Bangkok, Thailand",
        "region": "Asia Pacific"
    },
    {
        "cca2": "BN",
        "cf_lb_region": "SEAS",
        "city": "Bandar Seri Begawan",
        "country": "Brunei",
        "iata": "BWN",
        "lat": 4.903052,
        "lon": 114.939819,
        "name": "Bandar Seri Begawan, Brunei",
        "region": "Asia Pacific"
    },
    {
        "cca2": "IN",
        "cf_lb_region": "SAS",
        "city": "Bhubaneswar",
        "country": "India",
        "iata": "BBI",
        "lat": 20.2961,
        "lon": 85.8245,
        "name": "Bhubaneswar, India",
        "region": "Asia Pacific"
    },
    {
        "cca2": "PH",
        "cf_lb_region": "SEAS",
        "city": "Cebu",
        "country": "Philippines",
        "iata": "CEB",
        "lat": 10.3074998856,
        "lon": 123.978996277,
        "name": "Cebu, Philippines",
        "region": "Asia Pacific"
    },
    {
        "cca2": "IN",
        "cf_lb_region": "SAS",
        "city": "Chandigarh",
        "country": "India",
        "iata": "IXC",
        "lat": 30.673500061,
        "lon": 76.7884979248,
        "name": "Chandigarh, India",
        "region": "Asia Pacific"
    },
    {
        "cca2": "CN",
        "cf_lb_region": "NEAS",
        "city": "Changde",
        "country": "China",
        "iata": "CGD",
        "lat": 28.9189,
        "lon": 111.64,
        "name": "Changde, China",
        "region": "Asia"
    },
    {
        "cca2": "IN",
        "cf_lb_region": "SAS",
        "city": "Chennai",
        "country": "India",
        "iata": "MAA",
        "lat": 12.9900054932,
        "lon": 80.1692962646,
        "name": "Chennai, India",
        "region": "Asia Pacific"
    },
    {
        "cca2": "BD",
        "cf_lb_region": "SEAS",
        "city": "Chittagong",
        "country": "Bangladesh",
        "iata": "CGP",
        "lat": 22.2495995,
        "lon": 91.8133011,
        "name": "Chittagong, Bangladesh",
        "region": "Asia Pacific"
    },
    {
        "cca2": "LK",
        "cf_lb_region": "SAS",
        "city": "Colombo",
        "country": "Sri Lanka",
        "iata": "CMB",
        "lat": 7.1807599068,
        "lon": 79.8841018677,
        "name": "Colombo, Sri Lanka",
        "region": "Asia Pacific"
    },
    {
        "cca2": "BD",
        "cf_lb_region": "SEAS",
        "city": "Dhaka",
        "country": "Bangladesh",
        "iata": "DAC",
        "lat": 23.843347,
        "lon": 90.397783,
        "name": "Dhaka, Bangladesh",
        "region": "Asia Pacific"
    },
    {
        "cca2": "CN",
        "cf_lb_region": "NEAS",
        "city": "Foshan",
        "country": "China",
        "iata": "FUO",
        "lat": 23.0833,
        "lon": 113.07,
        "name": "Foshan, China",
        "region": "Asia"
    },
    {
        "cca2": "JP",
        "cf_lb_region": "NEAS",
        "city": "Fukuoka",
        "country": "Japan",
        "iata": "FUK",
        "lat": 33.5902,
        "lon": 130.4017,
        "name": "Fukuoka, Japan",
        "region": "Asia Pacific"
    },
    {
        "cca2": "CN",
        "cf_lb_region": "NEAS",
        "city": "Fuzhou",
        "country": "China",
        "iata": "FOC",
        "lat": 25.9351,
        "lon": 119.663,
        "name": "Fuzhou, China",
        "region": "Asia"
    },
    {
        "cca2": "CN",
        "cf_lb_region": "NEAS",
        "city": "Guangzhou",
        "country": "China",
        "iata": "CAN",
        "lat": 23.3924,
        "lon": 113.299,
        "name": "Guangzhou, China",
        "region": "Asia"
    },
    {
        "cca2": "CN",
        "cf_lb_region": "NEAS",
        "city": "Chengmai",
        "country": "China",
        "iata": "HAK",
        "lat": 19.9349,
        "lon": 110.459,
        "name": "Chengmai, China",
        "region": "Asia"
    },
    {
        "cca2": "VN",
        "cf_lb_region": "SEAS",
        "city": "Hanoi",
        "country": "Vietnam",
        "iata": "HAN",
        "lat": 21.221200943,
        "lon": 105.806999206,
        "name": "Hanoi, Vietnam",
        "region": "Asia Pacific"
    },
    {
        "cca2": "CN",
        "cf_lb_region": "NEAS",
        "city": "Hengshui",
        "country": "China",
        "iata": "SJW",
        "lat": 38.2807,
        "lon": 114.697,
        "name": "Hengshui, China",
        "region": "Asia"
    },
    {
        "cca2": "VN",
        "cf_lb_region": "SEAS",
        "city": "Ho Chi Minh City",
        "country": "Vietnam",
        "iata": "SGN",
        "lat": 10.8187999725,
        "lon": 106.652000427,
        "name": "Ho Chi Minh City, Vietnam",
        "region": "Asia Pacific"
    },
    {
        "cca2": "HK",
        "cf_lb_region": "NEAS",
        "city": "Hong Kong",
        "country": "China",
        "iata": "HKG",
        "lat": 22.3089008331,
        "lon": 113.915000916,
        "name": "Hong Kong",
        "region": "Asia Pacific"
    },
    {
        "cca2": "IN",
        "cf_lb_region": "SAS",
        "city": "Hyderabad",
        "country": "India",
        "iata": "HYD",
        "lat": 17.2313175201,
        "lon": 78.4298553467,
        "name": "Hyderabad, India",
        "region": "Asia Pacific"
    },
    {
        "cca2": "PK",
        "cf_lb_region": "SAS",
        "city": "Islamabad",
        "country": "Pakistan",
        "iata": "ISB",
        "lat": 33.6166992188,
        "lon": 73.0991973877,
        "name": "Islamabad, Pakistan",
        "region": "Asia Pacific"
    },
    {
        "cca2": "ID",
        "cf_lb_region": "SEAS",
        "city": "Jakarta",
        "country": "Indonesia",
        "iata": "CGK",
        "lat": -6.1275229,
        "lon": 106.6515118,
        "name": "Jakarta, Indonesia",
        "region": "Asia Pacific"
    },
    {
        "cca2": "CN",
        "cf_lb_region": "NEAS",
        "city": "Zibo",
        "country": "China",
        "iata": "TNA",
        "lat": 36.8572,
        "lon": 117.216,
        "name": "Zibo, China",
        "region": "Asia"
    },
    {
        "cca2": "MY",
        "cf_lb_region": "SEAS",
        "city": "Johor Bahru",
        "country": "Malaysia",
        "iata": "JHB",
        "lat": 1.635848,
        "lon": 103.665943,
        "name": "Johor Bahru, Malaysia",
        "region": "Asia Pacific"
    },
    {
        "cca2": "IN",
        "cf_lb_region": "SAS",
        "city": "Kanpur",
        "country": "India",
        "iata": "KNU",
        "lat": 26.4499,
        "lon": 80.3319,
        "name": "Kanpur, India",
        "region": "Asia Pacific"
    },
    {
        "cca2": "TW",
        "cf_lb_region": "NEAS",
        "city": "Kaohsiung City",
        "country": "Taiwan",
        "iata": "KHH",
        "lat": 22.5771007538,
        "lon": 120.3499984741,
        "name": "Kaohsiung City, Taiwan",
        "region": "Asia Pacific"
    },
    {
        "cca2": "PK",
        "cf_lb_region": "SAS",
        "city": "Karachi",
        "country": "Pakistan",
        "iata": "KHI",
        "lat": 24.9064998627,
        "lon": 67.1607971191,
        "name": "Karachi, Pakistan",
        "region": "Asia Pacific"
    },
    {
        "cca2": "NP",
        "cf_lb_region": "SAS",
        "city": "Kathmandu",
        "country": "Nepal",
        "iata": "KTM",
        "lat": 27.6965999603,
        "lon": 85.3591003418,
        "name": "Kathmandu, Nepal",
        "region": "Asia Pacific"
    },
    {
        "cca2": "IN",
        "cf_lb_region": "SAS",
        "city": "Kolkata",
        "country": "India",
        "iata": "CCU",
        "lat": 22.6476933,
        "lon": 88.4349249,
        "name": "Kolkata, India",
        "region": "Asia Pacific"
    },
    {
        "cca2": "RU",
        "cf_lb_region": "SAS",
        "city": "Krasnoyarsk",
        "country": "Russia",
        "iata": "KJA",
        "lat": 56.0153,
        "lon": 92.8932,
        "name": "Krasnoyarsk, Russia",
        "region": "Asia Pacific"
    },
    {
        "cca2": "MY",
        "cf_lb_region": "SEAS",
        "city": "Kuala Lumpur",
        "country": "Malaysia",
        "iata": "KUL",
        "lat": 2.745579958,
        "lon": 101.709999084,
        "name": "Kuala Lumpur, Malaysia",
        "region": "Asia Pacific"
    },
    {
        "cca2": "PK",
        "cf_lb_region": "SAS",
        "city": "Lahore",
        "country": "Pakistan",
        "iata": "LHE",
        "lat": 31.5216007233,
        "lon": 74.4036026001,
        "name": "Lahore, Pakistan",
        "region": "Asia Pacific"
    },
    {
        "cca2": "CN",
        "cf_lb_region": "NEAS",
        "city": "Langfang",
        "country": "China",
        "iata": "PKX",
        "lat": 39.5101,
        "lon": 116.4101,
        "name": "Langfang, China",
        "region": "Asia"
    },
    {
        "cca2": "MO",
        "cf_lb_region": "NEAS",
        "city": "Macau",
        "country": "China",
        "iata": "MFM",
        "lat": 22.1495990753,
        "lon": 113.592002869,
        "name": "Macau",
        "region": "Asia Pacific"
    },
    {
        "cca2": "MV",
        "cf_lb_region": "SAS",
        "city": "Male",
        "country": "Maldives",
        "iata": "MLE",
        "lat": 4.1748,
        "lon": 73.50888,
        "name": "Male, Maldives",
        "region": "Asia Pacific"
    },
    {
        "cca2": "PH",
        "cf_lb_region": "SEAS",
        "city": "Manila",
        "country": "Philippines",
        "iata": "MNL",
        "lat": 14.508600235,
        "lon": 121.019996643,
        "name": "Manila, Philippines",
        "region": "Asia Pacific"
    },
    {
        "cca2": "IN",
        "cf_lb_region": "SAS",
        "city": "Mumbai",
        "country": "India",
        "iata": "BOM",
        "lat": 19.0886993408,
        "lon": 72.8678970337,
        "name": "Mumbai, India",
        "region": "Asia Pacific"
    },
    {
        "cca2": "IN",
        "cf_lb_region": "SAS",
        "city": "Nagpur",
        "country": "India",
        "iata": "NAG",
        "lat": 21.1610714,
        "lon": 79.0024702,
        "name": "Nagpur, India",
        "region": "Asia Pacific"
    },
    {
        "cca2": "JP",
        "cf_lb_region": "NEAS",
        "city": "Naha",
        "country": "Japan",
        "iata": "OKA",
        "lat": 26.1958,
        "lon": 127.646,
        "name": "Naha, Japan",
        "region": "Asia Pacific"
    },
    {
        "cca2": "IN",
        "cf_lb_region": "SAS",
        "city": "New Delhi",
        "country": "India",
        "iata": "DEL",
        "lat": 28.5664997101,
        "lon": 77.1031036377,
        "name": "New Delhi, India",
        "region": "Asia Pacific"
    },
    {
        "cca2": "JP",
        "cf_lb_region": "NEAS",
        "city": "Osaka",
        "country": "Japan",
        "iata": "KIX",
        "lat": 34.4272994995,
        "lon": 135.244003296,
        "name": "Osaka, Japan",
        "region": "Asia Pacific"
    },
    {
        "cca2": "IN",
        "cf_lb_region": "SAS",
        "city": "Patna",
        "country": "India",
        "iata": "PAT",
        "lat": 25.591299057,
        "lon": 85.0879974365,
        "name": "Patna, India",
        "region": "Asia Pacific"
    },
    {
        "cca2": "KH",
        "cf_lb_region": "SEAS",
        "city": "Phnom Penh",
        "country": "Cambodia",
        "iata": "PNH",
        "lat": 11.5466003418,
        "lon": 104.84400177,
        "name": "Phnom Penh, Cambodia",
        "region": "Asia Pacific"
    },
    {
        "cca2": "CN",
        "cf_lb_region": "NEAS",
        "city": "Qingdao",
        "country": "China",
        "iata": "TAO",
        "lat": 36.2661,
        "lon": 120.374,
        "name": "Qingdao, China",
        "region": "Asia"
    },
    {
        "cca2": "KR",
        "cf_lb_region": "NEAS",
        "city": "Seoul",
        "country": "South Korea",
        "iata": "ICN",
        "lat": 37.4691009521,
        "lon": 126.450996399,
        "name": "Seoul, South Korea",
        "region": "Asia Pacific"
    },
    {
        "cca2": "CN",
        "cf_lb_region": "NEAS",
        "city": "Shanghai",
        "country": "China",
        "iata": "SHA",
        "lat": 31.1979,
        "lon": 121.336,
        "name": "Shanghai, China",
        "region": "Asia"
    },
    {
        "cca2": "SG",
        "cf_lb_region": "SEAS",
        "city": "Singapore",
        "country": "Singapore",
        "iata": "SIN",
        "lat": 1.3501900434,
        "lon": 103.994003296,
        "name": "Singapore, Singapore",
        "region": "Asia Pacific"
    },
    {
        "cca2": "TH",
        "cf_lb_region": "SEAS",
        "city": "Surat Thani",
        "country": "Thailand",
        "iata": "URT",
        "lat": 9.1325998306,
        "lon": 99.135597229,
        "name": "Surat Thani, Thailand",
        "region": "Asia Pacific"
    },
    {
        "cca2": "TW",
        "cf_lb_region": "NEAS",
        "city": "Taipei",
        "country": "Taiwan",
        "iata": "TPE",
        "lat": 25.0776996613,
        "lon": 121.233001709,
        "name": "Taipei",
        "region": "Asia Pacific"
    },
    {
        "cca2": "JP",
        "cf_lb_region": "NEAS",
        "city": "Tokyo",
        "country": "Japan",
        "iata": "NRT",
        "lat": 35.7647018433,
        "lon": 140.386001587,
        "name": "Tokyo, Japan",
        "region": "Asia Pacific"
    },
    {
        "cca2": "MN",
        "cf_lb_region": "NEAS",
        "city": "Ulaanbaatar",
        "country": "Mongolia",
        "iata": "ULN",
        "lat": 47.8431015015,
        "lon": 106.766998291,
        "name": "Ulaanbaatar, Mongolia",
        "region": "Asia Pacific"
    },
    {
        "cca2": "LA",
        "cf_lb_region": "SEAS",
        "city": "Vientiane",
        "country": "Laos",
        "iata": "VTE",
        "lat": 17.9757,
        "lon": 102.5683,
        "name": "Vientiane, Laos",
        "region": "Asia Pacific"
    },
    {
        "cca2": "CN",
        "cf_lb_region": "NEAS",
        "city": "Nanchang",
        "country": "China",
        "iata": "KHN",
        "lat": 28.865,
        "lon": 115.9,
        "name": "Nanchang, China",
        "region": "Asia"
    },
    {
        "cca2": "ID",
        "cf_lb_region": "SEAS",
        "city": "Yogyakarta",
        "country": "Indonesia",
        "iata": "JOG",
        "lat": -7.7881798744,
        "lon": 110.4319992065,
        "name": "Yogyakarta, Indonesia",
        "region": "Asia Pacific"
    },
    {
        "cca2": "CN",
        "cf_lb_region": "NEAS",
        "city": "Zhongshan",
        "country": "China",
        "iata": "ZGN",
        "name": "Zhongshan, China",
        "region": "Asia"
    },
    {
        "cca2": "PH",
        "cf_lb_region": "SEAS",
        "city": "Cagayan de Oro",
        "country": "Philippines",
        "iata": "CGY",
        "lat": 8.4156198502,
        "lon": 124.611000061,
        "name": "Cagayan de Oro, Philippines",
        "region": "Asia Pacific"
    },
    {
        "cca2": "IN",
        "cf_lb_region": "SAS",
        "city": "Kochi",
        "country": "India",
        "iata": "COK",
        "lat": 9.9312,
        "lon": 76.2673,
        "name": "Kochi, India",
        "region": "Asia Pacific"
    },
    {
        "cca2": "ID",
        "cf_lb_region": "SEAS",
        "city": "Denpasar",
        "country": "Indonesia",
        "iata": "DPS",
        "lat": -8.748169899,
        "lon": 115.1669998169,
        "name": "Denpasar, Indonesia",
        "region": "Asia Pacific"
    },
    {
        "cca2": "IN",
        "cf_lb_region": "SAS",
        "city": "Kannur",
        "country": "India",
        "iata": "CNN",
        "lat": 11.915858,
        "lon": 75.55094,
        "name": "Kannur, India",
        "region": "Asia Pacific"
    },
    {
        "cca2": "CN",
        "cf_lb_region": "NEAS",
        "city": "Shenzhen",
        "country": "China",
        "iata": "SZX",
        "lat": 22.6393,
        "lon": 113.811,
        "name": "Shenzhen, China",
        "region": "Asia"
    },
    {
        "cca2": "CN",
        "cf_lb_region": "NEAS",
        "city": "Guiyang",
        "country": "China",
        "iata": "KWE",
        "lat": 26.5385,
        "lon": 106.801,
        "name": "Guiyang, China",
        "region": "Asia"
    },
    {
        "cca2": "CN",
        "cf_lb_region": "NEAS",
        "city": "Shaoxing",
        "country": "China",
        "iata": "HGH",
        "lat": 30.2295,
        "lon": 120.434,
        "name": "Shaoxing, China",
        "region": "Asia"
    },
    {
        "cca2": "CN",
        "cf_lb_region": "NEAS",
        "city": "Changzhou",
        "country": "China",
        "iata": "CZX",
        "lat": 31.9197,
        "lon": 119.779,
        "name": "Changzhou, China",
        "region": "Asia"
    },
    {
        "cca2": "CN",
        "cf_lb_region": "NEAS",
        "city": "Kunming",
        "country": "China",
        "iata": "KMG",
        "lat": 25.1019,
        "lon": 102.929,
        "name": "Kunming, China",
        "region": "Asia"
    },
    {
        "cca2": "TH",
        "cf_lb_region": "SEAS",
        "city": "Chiang Mai",
        "country": "Thailand",
        "iata": "CNX",
        "lat": 18.7667999268,
        "lon": 98.962600708,
        "name": "Chiang Mai, Thailand",
        "region": "Asia Pacific"
    },
    {
        "cca2": "CN",
        "cf_lb_region": "NEAS",
        "city": "Zhengzhou",
        "country": "China",
        "iata": "CGO",
        "lat": 34.5197,
        "lon": 113.841,
        "name": "Zhengzhou, China",
        "region": "Asia"
    },
    {
        "cca2": "CN",
        "cf_lb_region": "NEAS",
        "city": "Yangquan",
        "country": "China",
        "iata": "TYN",
        "lat": 37.7469,
        "lon": 112.628,
        "name": "Yangquan, China",
        "region": "Asia"
    },
    {
        "cca2": "CN",
        "cf_lb_region": "NEAS",
        "city": "Changsha",
        "country": "China",
        "iata": "CSX",
        "lat": 28.1892,
        "lon": 113.22,
        "name": "Changsha, China",
        "region": "Asia"
    },
    {
        "cca2": "CN",
        "cf_lb_region": "NEAS",
        "city": "Dalian",
        "country": "China",
        "iata": "DLC",
        "lat": 38.9657,
        "lon": 121.539,
        "name": "Dalian, China",
        "region": "Asia"
    },
    {
        "cca2": "CN",
        "cf_lb_region": "NEAS",
        "city": "Beihai",
        "country": "China",
        "iata": "BHY",
        "lat": 21.5394,
        "lon": 109.294,
        "name": "Beihai, China",
        "region": "Asia"
    },
    {
        "cca2": "CN",
        "cf_lb_region": "NEAS",
        "city": "Chongqing",
        "country": "China",
        "iata": "CKG",
        "lat": 29.7192,
        "lon": 106.642,
        "name": "Chongqing, China",
        "region": "Asia"
    },
    {
        "cca2": "CN",
        "cf_lb_region": "NEAS",
        "city": "Xiangyang",
        "country": "China",
        "iata": "XFN",
        "lat": 32.1506,
        "lon": 112.291,
        "name": "Xiangyang, China",
        "region": "Asia"
    },
    {
        "cca2": "VN",
        "cf_lb_region": "SEAS",
        "city": "Da Nang",
        "country": "Vietnam",
        "iata": "DAD",
        "lat": 16.02636,
        "lon": 108.20869,
        "name": "Da Nang, Vietnam",
        "region": "Asia Pacific"
    },
    {
        "cca2": "CN",
        "cf_lb_region": "NEAS",
        "city": "Jiaxing",
        "country": "China",
        "iata": "JXG",
        "name": "Jiaxing, China",
        "region": "Asia"
    },
    {
        "cca2": "PH",
        "cf_lb_region": "SEAS",
        "city": "Tarlac City",
        "country": "Philippines",
        "iata": "CRK",
        "lat": 15.1859,
        "lon": 120.5599,
        "name": "Tarlac City, Philippines",
        "region": "Asia Pacific"
    },
    {
        "cca2": "BT",
        "cf_lb_region": "SEAS",
        "city": "Thimphu",
        "country": "Bhutan",
        "iata": "PBH",
        "lat": 27.4712,
        "lon": 89.6339,
        "name": "Thimphu, Bhutan",
        "region": "Asia Pacific"
    },
    {
        "cca2": "CN",
        "cf_lb_region": "NEAS",
        "city": "Baoji",
        "country": "China",
        "iata": "XIY",
        "lat": 34.4471,
        "lon": 108.752,
        "name": "Baoji, China",
        "region": "Asia"
    },
    {
        "cca2": "CN",
        "cf_lb_region": "NEAS",
        "city": "Chengdu",
        "country": "China",
        "iata": "CTU",
        "lat": 30.5785,
        "lon": 103.947,
        "name": "Chengdu, China",
        "region": "Asia"
    },
    {
        "cca2": "KZ",
        "cf_lb_region": "SAS",
        "city": "Astana",
        "country": "Kazakhstan",
        "iata": "NQZ",
        "lat": 51.167801,
        "lon": 71.418893,
        "name": "Astana, Kazakhstan",
        "region": "Asia Pacific"
    },
    {
        "cca2": "CN",
        "cf_lb_region": "NEAS",
        "city": "Nanning",
        "country": "China",
        "iata": "NNG",
        "lat": 22.6083,
        "lon": 108.172,
        "name": "Nanning, China",
        "region": "Asia"
    },
    {
        "cca2": "MY",
        "cf_lb_region": "SEAS",
        "city": "Kuching",
        "country": "Malaysia",
        "iata": "KCH",
        "lat": 1.709727,
        "lon": 110.353455,
        "name": "Kuching, Malaysia",
        "region": "Asia Pacific"
    },
    {
        "cca2": "KZ",
        "cf_lb_region": "SAS",
        "city": "Aktobe",
        "country": "Kazakhstan",
        "iata": "AKX",
        "lat": 50.286922,
        "lon": 57.224121,
        "name": "Aktobe, Kazakhstan",
        "region": "Asia Pacific"
    },
    {
        "cca2": "CN",
        "cf_lb_region": "NEAS",
        "city": "Tongren",
        "country": "China",
        "iata": "TEN",
        "lat": 27.8833,
        "lon": 109.309,
        "name": "Tongren, China",
        "region": "Asia"
    },
    {
        "cca2": "CN",
        "cf_lb_region": "NEAS",
        "city": "Taizhou",
        "country": "China",
        "iata": "HYN",
        "lat": 28.5622,
        "lon": 121.429,
        "name": "Taizhou, China",
        "region": "Asia"
    }
]