[
    {
        "cca2": "NL",
        "cf_lb_region": "WEU",
        "city": "Amsterdam",
        "country": "Netherlands",
        "iata": "AMS",
        "lat": 52.3086,
        "lon": 4.76389,
        "name": "Amsterdam, Netherlands",
        "region": "Europe"
    },
    {
        "cca2": "GR",
        "cf_lb_region": "EEU",
        "city": "Athens",
        "country": "Greece",
        "iata": "ATH",
        "lat": 37.9364,
        "lon": 23.9445,
        "name": "Athens, Greece",
        "region": "Europe"
    },
    {
        "cca2": "ES",
        "cf_lb_region": "WEU",
        "city": "Barcelona",
        "country": "Spain",
        "iata": "BCN",
        "lat": 41.2971,
        "lon": 2.07846,
        "name": "Barcelona, Spain",
        "region": "Europe"
    },
    {
        "cca2": "RS",
        "cf_lb_region": "EEU",
        "city": "Belgrade",
        "country": "Serbia",
        "iata": "BEG",
        "lat": 44.8184,
        "lon": 20.3091,
        "name": "Belgrade, Serbia",
        "region": "Europe"
    },
    {
        "cca2": "DE",
        "cf_lb_region": "EEU",
        "city": "Berlin",
        "country": "Germany",
        "iata": "TXL",
        "lat": 52.5597,
        "lon": 13.2877,
        "name": "Berlin, Germany",
        "region": "Europe"
    },
    {
        "cca2": "SK",
        "cf_lb_region": "EEU",
        "city": "Bratislava",
        "country": "Slovakia",
        "iata": "BTS",
        "lat": 48.1702,
        "lon": 17.2127,
        "name": "Bratislava, Slovakia",
        "region": "Europe"
    },
    {
        "cca2": "BE",
        "cf_lb_region": "WEU",
        "city": "Brussels",
        "country": "Belgium",
        "iata": "BRU",
        "lat": 50.9014,
        "lon": 4.48444,
        "name": "Brussels, Belgium",
        "region": "Europe"
    },
    {
        "cca2": "RO",
        "cf_lb_region": "EEU",
        "city": "Bucharest",
        "country": "Romania",
        "iata": "OTP",
        "lat": 44.5711,
        "lon": 26.085,
        "name": "Bucharest, Romania",
        "region": "Europe"
    },
    {
        "cca2": "HU",
        "cf_lb_region": "EEU",
        "city": "Budapest",
        "country": "Hungary",
        "iata": "BUD",
        "lat": 47.4298,
        "lon": 19.2611,
        "name": "Budapest, Hungary",
        "region": "Europe"
    },
    {
        "cca2": "MD",
        "cf_lb_region": "EEU",
        "city": "Chisinau",
        "country": "Moldova",
        "iata": "KIV",
        "name": "Chisinau, Moldova",
        "region": "Europe"
    },
    {
        "cca2": "DK",
        "cf_lb_region": "EEU",
        "city": "Copenhagen",
        "country": "Denmark",
        "iata": "CPH",
        "lat": 55.6179,
        "lon": 12.656,
        "name": "Copenhagen, Denmark",
        "region": "Europe"
    },
    {
        "cca2": "IE",
        "cf_lb_region": "WEU",
        "city": "Dublin",
        "country": "Ireland",
        "iata": "DUB",
        "lat": 53.4213,
        "lon": -6.27007,
        "name": "Dublin, Ireland",
        "region": "Europe"
    },
    {
        "cca2": "DE",
        "cf_lb_region": "WEU",
        "city": "Dusseldorf",
        "country": "Germany",
        "iata": "DUS",
        "lat": 51.2895,
        "lon": 6.76678,
        "name": "Dusseldorf, Germany",
        "region": "Europe"
    },
    {
        "cca2": "DE",
        "cf_lb_region": "WEU",
        "city": "Frankfurt",
        "country": "Germany",
        "iata": "FRA",
        "lat": 50.0333,
        "lon": 8.57056,
        "name": "Frankfurt, Germany",
        "region": "Europe"
    },
    {
        "cca2": "CH",
        "cf_lb_region": "WEU",
        "city": "Geneva",
        "country": "Switzerland",
        "iata": "GVA",
        "lat": 46.2381,
        "lon": 6.10895,
        "name": "Geneva, Switzerland",
        "region": "Europe"
    },
    {
        "cca2": "SE",
        "cf_lb_region": "EEU",
        "city": "Gothenburg",
        "country": "Sweden",
        "iata": "GOT",
        "lat": 57.6628,
        "lon": 12.2798,
        "name": "Gothenburg, Sweden",
        "region": "Europe"
    },
    {
        "cca2": "DE",
        "cf_lb_region": "EEU",
        "city": "Hamburg",
        "country": "Germany",
        "iata": "HAM",
        "lat": 53.6304,
        "lon": 9.98823,
        "name": "Hamburg, Germany",
        "region": "Europe"
    },
    {
        "cca2": "FI",
        "cf_lb_region": "EEU",
        "city": "Helsinki",
        "country": "Finland",
        "iata": "HEL",
        "lat": 60.3172,
        "lon": 24.9633,
        "name": "Helsinki, Finland",
        "region": "Europe"
    },
    {
        "cca2": "TR",
        "cf_lb_region": "EEU",
        "city": "Istanbul",
        "country": "Turkey",
        "iata": "IST",
        "lat": 41.2753,
        "lon": 28.7519,
        "name": "Istanbul, Turkey",
        "region": "Europe"
    },
    {
        "cca2": "TR",
        "cf_lb_region": "EEU",
        "city": "Izmir",
        "country": "Turkey",
        "iata": "ADB",
        "lat": 38.2916,
        "lon": 27.1487,
        "name": "Izmir, Turkey",
        "region": "Europe"
    },
    {
        "cca2": "UA",
        "cf_lb_region": "EEU",
        "city": "Kyiv",
        "country": "Ukraine",
        "iata": "KBP",
        "lat": 50.345,
        "lon": 30.8947,
        "name": "Kyiv, Ukraine",
        "region": "Europe"
    },
    {
        "cca2": "PT",
        "cf_lb_region": "WEU",
        "city": "Lisbon",
        "country": "Portugal",
        "iata": "LIS",
        "lat": 38.7813,
        "lon": -9.13592,
        "name": "Lisbon, Portugal",
        "region": "Europe"
    },
    {
        "cca2": "GB",
        "cf_lb_region": "WEU",
        "city": "London",
        "country": "United Kingdom",
        "iata": "LHR",
        "lat": 51.4775,
        "lon": -0.461389,
        "name": "London, United Kingdom",
        "region": "Europe"
    },
    {
        "cca2": "LU",
        "cf_lb_region": "WEU",
        "city": "Luxembourg City",
        "country": "Luxembourg",
        "iata": "LUX",
        "lat": 49.6233,
        "lon": 6.20444,
        "name": "Luxembourg City, Luxembourg",
        "region": "Europe"
    },
    {
        "cca2": "ES",
        "cf_lb_region": "WEU",
        "city": "Madrid",
        "country": "Spain",
        "iata": "MAD",
        "lat": 40.4719,
        "lon": -3.56264,
        "name": "Madrid, Spain",
        "region": "Europe"
    },
    {
        "cca2": "GB",
        "cf_lb_region": "WEU",
        "city": "Manchester",
        "country": "United Kingdom",
        "iata": "MAN",
        "lat": 53.3537,
        "lon": -2.27495,
        "name": "Manchester, United Kingdom",
        "region": "Europe"
    },
    {
        "cca2": "FR",
        "cf_lb_region": "WEU",
        "city": "Marseille",
        "country": "France",
        "iata": "MRS",
        "lat": 43.4393,
        "lon": 5.22142,
        "name": "Marseille, France",
        "region": "Europe"
    },
    {
        "cca2": "IT",
        "cf_lb_region": "WEU",
        "city": "Milan",
        "country": "Italy",
        "iata": "MXP",
        "lat": 45.6306,
        "lon": 8.72811,
        "name": "Milan, Italy",
        "region": "Europe"
    },
    {
        "cca2": "BY",
        "cf_lb_region": "EEU",
        "city": "Minsk",
        "country": "Belarus",
        "iata": "MSQ",
        "lat": 53.8825,
        "lon": 28.0307,
        "name": "Minsk, Belarus",
        "region": "Europe"
    },
    {
        "cca2": "RU",
        "cf_lb_region": "EEU",
        "city": "Moscow",
        "country": "Russia",
        "iata": "DME",
        "lat": 55.4102,
        "lon": 37.902,
        "name": "Moscow, Russia",
        "region": "Europe"
    },
    {
        "cca2": "DE",
        "cf_lb_region": "WEU",
        "city": "Munich",
        "country": "Germany",
        "iata": "MUC",
        "lat": 48.3538,
        "lon": 11.7861,
        "name": "Munich, Germany",
        "region": "Europe"
    },
    {
        "cca2": "CY",
        "cf_lb_region": "ME",
        "city": "Nicosia",
        "country": "Cyprus",
        "iata": "LCA",
        "lat": 34.8751,
        "lon": 33.6249,
        "name": "Nicosia, Cyprus",
        "region": "Europe"
    },
    {
        "cca2": "NO",
        "cf_lb_region": "EEU",
        "city": "Oslo",
        "country": "Norway",
        "iata": "OSL",
        "lat": 60.1939,
        "lon": 11.1004,
        "name": "Oslo, Norway",
        "region": "Europe"
    },
    {
        "cca2": "IT",
        "cf_lb_region": "EEU",
        "city": "Palermo",
        "country": "Italy",
        "iata": "PMO",
        "lat": 38.176,
        "lon": 13.091,
        "name": "Palermo, Italy",
        "region": "Europe"
    },
    {
        "cca2": "FR",
        "cf_lb_region": "WEU",
        "city": "Paris",
        "country": "France",
        "iata": "CDG",
        "lat": 49.0097,
        "lon": 2.54778,
        "name": "Paris, France",
        "region": "Europe"
    },
    {
        "cca2": "CZ",
        "cf_lb_region": "EEU",
        "city": "Prague",
        "country": "Czech Republic",
        "iata": "PRG",
        "lat": 50.1008,
        "lon": 14.26,
        "name": "Prague, Czech Republic",
        "region": "Europe"
    },
    {
        "cca2": "IS",
        "cf_lb_region": "WEU",
        "city": "Reykjavik",
        "country": "Iceland",
        "iata": "KEF",
        "lat": 63.985,
        "lon": -22.6056,
        "name": "Reykjavik, Iceland",
        "region": "Europe"
    },
    {
        "cca2": "LV",
        "cf_lb_region": "EEU",
        "city": "Riga",
        "country": "Latvia",
        "iata": "RIX",
        "lat": 56.9236,
        "lon": 23.9711,
        "name": "Riga, Latvia",
        "region": "Europe"
    },
    {
        "cca2": "IT",
        "cf_lb_region": "EEU",
        "city": "Rome",
        "country": "Italy",
        "iata": "FCO",
        "lat": 41.8003,
        "lon": 12.2389,
        "name": "Rome, Italy",
        "region": "Europe"
    },
    {
        "cca2": "RU",
        "cf_lb_region": "EEU",
        "city": "Saint Petersburg",
        "country": "Russia",
        "iata": "LED",
        "lat": 59.8003,
        "lon": 30.2625,
        "name": "Saint Petersburg, Russia",
        "region": "Europe"
    },
    {
        "cca2": "BG",
        "cf_lb_region": "EEU",
        "city": "Sofia",
        "country": "Bulgaria",
        "iata": "SOF",
        "lat": 42.6967,
        "lon": 23.4114,
        "name": "Sofia, Bulgaria",
        "region": "Europe"
    },
    {
        "cca2": "SE",
        "cf_lb_region": "EEU",
        "city": "Stockholm",
        "country": "Sweden",
        "iata": "ARN",
        "lat": 59.6519,
        "lon": 17.9186,
        "name": "Stockholm, Sweden",
        "region": "Europe"
    },
    {
        "cca2": "DE",
        "cf_lb_region": "WEU",
        "city": "Stuttgart",
        "country": "Germany",
        "iata": "STR",
        "lat": 48.6899,
        "lon": 9.22196,
        "name": "Stuttgart, Germany",
        "region": "Europe"
    },
    {
        "cca2": "EE",
        "cf_lb_region": "EEU",
        "city": "Tallinn",
        "country": "Estonia",
        "iata": "TLL",
        "lat": 59.4133,
        "lon": 24.8328,
        "name": "Tallinn, Estonia",
        "region": "Europe"
    },
    {
        "cca2": "GE",
        "cf_lb_region": "ME",
        "city": "Tbilisi",
        "country": "Georgia",
        "iata": "TBS",
        "lat": 41.6692,
        "lon": 44.9547,
        "name": "Tbilisi, Georgia",
        "region": "Europe"
    },
    {
        "cca2": "GR",
        "cf_lb_region": "EEU",
        "city": "Thessaloniki",
        "country": "Greece",
        "iata": "SKG",
        "lat": 40.5197,
        "lon": 22.9709,
        "name": "Thessaloniki, Greece",
        "region": "Europe"
    },
    {
        "cca2": "AL",
        "cf_lb_region": "EEU",
        "city": "Tirana",
        "country": "Albania",
        "iata": "TIA",
        "lat": 41.4147,
        "lon": 19.7206,
        "name": "Tirana, Albania",
        "region": "Europe"
    },
    {
        "cca2": "AT",
        "cf_lb_region": "EEU",
        "city": "Vienna",
        "country": "Austria",
        "iata": "VIE",
        "lat": 48.1103,
        "lon": 16.5697,
        "name": "Vienna, Austria",
        "region": "Europe"
    },
    {
        "cca2": "LT",
        "cf_lb_region": "EEU",
        "city": "Vilnius",
        "country": "Lithuania",
        "iata": "VNO",
        "lat": 54.6341,
        "lon": 25.2858,
        "name": "Vilnius, Lithuania",
        "region": "Europe"
    },
    {
        "cca2": "PL",
        "cf_lb_region": "EEU",
        "city": "Warsaw",
        "country": "Poland",
        "iata": "WAW",
        "lat": 52.1657,
        "lon": 20.9671,
        "name": "Warsaw, Poland",
        "region": "Europe"
    },
    {
        "cca2": "HR",
        "cf_lb_region": "EEU",
        "city": "Zagreb",
        "country": "Croatia",
        "iata": "ZAG",
        "lat": 45.7429,
        "lon": 16.0688,
        "name": "Zagreb, Croatia",
        "region": "Europe"
    },
    {
        "cca2": "FR",
        "cf_lb_region": "WEU",
        "city": "Lyon",
        "country": "France",
        "iata": "LYS",
        "lat": 45.7256,
        "lon": 5.08111,
        "name": "Lyon, France",
        "region": "Europe"
    },
    {
        "cca2": "FR",
        "cf_lb_region": "WEU",
        "city": "Bordeaux",
        "country": "France",
        "iata": "BOD",
        "lat": 44.8283,
        "lon": -0.715556,
        "name": "Bordeaux, France",
        "region": "Europe"
    },
    {
        "cca2": "MK",
        "cf_lb_region": "EEU",
        "city": "Skopje",
        "country": "North Macedonia",
        "iata": "SKP",
        "lat": 41.9616,
        "lon": 21.6214,
        "name": "Skopje, North Macedonia",
        "region": "Europe"
    },
    {
        "cca2": "CH",
        "cf_lb_region": "WEU",
        "city": "Zurich",
        "country": "Switzerland",
        "iata": "ZRH",
        "lat": 47.4647,
        "lon": 8.54917,
        "name": "Zurich, Switzerland",
        "region": "Europe"
    },
    {
        "cca2": "PL",
        "cf_lb_region": "EEU",
        "city": "Wroclaw",
        "country": "Poland",
        "iata": "WRO",
        "lat": 51.1027,
        "lon": 16.8858,
        "name": "Wroclaw, Poland",
        "region": "Europe"
    },
    {
        "cca2": "MT",
        "cf_lb_region": "WEU",
        "city": "Santa Venera",
        "country": "Malta",
        "iata": "MLA",
        "lat": 35.8575,
        "lon": 14.4775,
        "name": "Santa Venera, Malta",
        "region": "Europe"
    }
]