[
    {
        "cca2": "JO",
        "cf_lb_region": "ME",
        "city": "Amman",
        "country": "Jordan",
        "iata": "AMM",
        "lat": 31.7226,
        "lon": 35.9932,
        "name": "Amman, Jordan",
        "region": "Middle East"
    },
    {
        "cca2": "AZ",
        "cf_lb_region": "ME",
        "city": "Astara",
        "country": "Azerbaijan",
        "iata": "LLK",
        "lat": 38.7464,
        "lon": 48.818,
        "name": "Astara, Azerbaijan",
        "region": "Middle East"
    },
    {
        "cca2": "IQ",
        "cf_lb_region": "ME",
        "city": "Baghdad",
        "country": "Iraq",
        "iata": "BGW",
        "lat": 33.2625,
        "lon": 44.2346,
        "name": "Baghdad, Iraq",
        "region": "Middle East"
    },
    {
        "cca2": "AZ",
        "cf_lb_region": "ME",
        "city": "Baku",
        "country": "Azerbaijan",
        "iata": "GYD",
        "lat": 40.4675,
        "lon": 50.0467,
        "name": "Baku, Azerbaijan",
        "region": "Middle East"
    },
    {
        "cca2": "IQ",
        "cf_lb_region": "ME",
        "city": "Basra",
        "country": "Iraq",
        "iata": "BSR",
        "lat": 30.5491,
        "lon": 47.6621,
        "name": "Basra, Iraq",
        "region": "Middle East"
    },
    {
        "cca2": "LB",
        "cf_lb_region": "ME",
        "city": "Beirut",
        "country": "Lebanon",
        "iata": "BEY",
        "lat": 33.8209,
        "lon": 35.4884,
        "name": "Beirut, Lebanon",
        "region": "Middle East"
    },
    {
        "cca2": "SA",
        "cf_lb_region": "ME",
        "city": "Dammam",
        "country": "Saudi Arabia",
        "iata": "DMM",
        "lat": 26.4712,
        "lon": 49.7979,
        "name": "Dammam, Saudi Arabia",
        "region": "Middle East"
    },
    {
        "cca2": "QA",
        "cf_lb_region": "ME",
        "city": "Doha",
        "country": "Qatar",
        "iata": "DOH",
        "lat": 25.2731,
        "lon": 51.6081,
        "name": "Doha, Qatar",
        "region": "Middle East"
    },
    {
        "cca2": "AE",
        "cf_lb_region": "ME",
        "city": "Dubai",
        "country": "United Arab Emirates",
        "iata": "DXB",
        "lat": 25.2528,
        "lon": 55.3644,
        "name": "Dubai, United Arab Emirates",
        "region": "Middle East"
    },
    {
        "cca2": "IQ",
        "cf_lb_region": "ME",
        "city": "Erbil",
        "country": "Iraq",
        "iata": "EBL",
        "lat": 36.2376,
        "lon": 43.9632,
        "name": "Erbil, Iraq",
        "region": "Middle East"
    },
    {
        "cca2": "IL",
        "cf_lb_region": "ME",
        "city": "Haifa",
        "country": "Israel",
        "iata": "HFA",
        "lat": 32.8094,
        "lon": 35.0431,
        "name": "Haifa, Israel",
        "region": "Middle East"
    },
    {
        "cca2": "SA",
        "cf_lb_region": "ME",
        "city": "Jeddah",
        "country": "Saudi Arabia",
        "iata": "JED",
        "lat": 21.6796,
        "lon": 39.1565,
        "name": "Jeddah, Saudi Arabia",
        "region": "Middle East"
    },
    {
        "cca2": "KW",
        "cf_lb_region": "ME",
        "city": "Kuwait City",
        "country": "Kuwait",
        "iata": "KWI",
        "lat": 29.2266,
        "lon": 47.9689,
        "name": "Kuwait City, Kuwait",
        "region": "Middle East"
    },
    {
        "cca2": "BH",
        "cf_lb_region": "ME",
        "city": "Manama",
        "country": "Bahrain",
        "iata": "BAH",
        "lat": 26.2708,
        "lon": 50.6336,
        "name": "Manama, Bahrain",
        "region": "Middle East"
    },
    {
        "cca2": "OM",
        "cf_lb_region": "ME",
        "city": "Muscat",
        "country": "Oman",
        "iata": "MCT",
        "lat": 23.5933,
        "lon": 58.2844,
        "name": "Muscat, Oman",
        "region": "Middle East"
    },
    {
        "cca2": "IQ",
        "cf_lb_region": "ME",
        "city": "Najaf",
        "country": "Iraq",
        "iata": "NJF",
        "lat": 31.9899,
        "lon": 44.4043,
        "name": "Najaf, Iraq",
        "region": "Middle East"
    },
    {
        "cca2": "IQ",
        "cf_lb_region": "ME",
        "city": "Nasiriyah",
        "country": "Iraq",
        "iata": "XNH",
        "name": "Nasiriyah, Iraq",
        "region": "Middle East"
    },
    {
        "cca2": "PS",
        "cf_lb_region": "ME",
        "city": "Ramallah",
        "country": "Palestine",
        "iata": "ZDM",
        "name": "Ramallah",
        "region": "Middle East"
    },
    {
        "cca2": "SA",
        "cf_lb_region": "ME",
        "city": "Riyadh",
        "country": "Saudi Arabia",
        "iata": "RUH",
        "lat": 24.9576,
        "lon": 46.6988,
        "name": "Riyadh, Saudi Arabia",
        "region": "Middle East"
    },
    {
        "cca2": "IQ",
        "cf_lb_region": "ME",
        "city": "Sulaymaniyah",
        "country": "Iraq",
        "iata": "ISU",
        "lat": 35.5617,
        "lon": 45.3167,
        "name": "Sulaymaniyah, Iraq",
        "region": "Middle East"
    },
    {
        "cca2": "IL",
        "cf_lb_region": "ME",
        "city": "Tel Aviv",
        "country": "Israel",
        "iata": "TLV",
        "lat": 32.0114,
        "lon": 34.8867,
        "name": "Tel Aviv, Israel",
        "region": "Middle East"
    }
]