[
    {
        "cca2": "AU",
        "cf_lb_region": "OC",
        "city": "Adelaide, SA",
        "country": "Australia",
        "iata": "ADL",
        "lat": -34.945,
        "lon": 138.531,
        "name": "Adelaide, SA, Australia",
        "region": "Oceania"
    },
    {
        "cca2": "NZ",
        "cf_lb_region": "OC",
        "city": "Auckland",
        "country": "New Zealand",
        "iata": "AKL",
        "lat": -37.0081,
        "lon": 174.792,
        "name": "Auckland, New Zealand",
        "region": "Oceania"
    },
    {
        "cca2": "AU",
        "cf_lb_region": "OC",
        "city": "Brisbane, QLD",
        "country": "Australia",
        "iata": "BNE",
        "lat": -27.3842,
        "lon": 153.117,
        "name": "Brisbane, QLD, Australia",
        "region": "Oceania"
    },
    {
        "cca2": "AU",
        "cf_lb_region": "OC",
        "city": "Canberra, ACT",
        "country": "Australia",
        "iata": "CBR",
        "lat": -35.3069,
        "lon": 149.195,
        "name": "Canberra, ACT, Australia",
        "region": "Oceania"
    },
    {
        "cca2": "NZ",
        "cf_lb_region": "OC",
        "city": "Christchurch",
        "country": "New Zealand",
        "iata": "CHC",
        "lat": -43.4894,
        "lon": 172.532,
        "name": "Christchurch, New Zealand",
        "region": "Oceania"
    },
    {
        "cca2": "GU",
        "cf_lb_region": "SEAS",
        "city": "Hagatna",
        "country": "Guam",
        "iata": "GUM",
        "lat": 13.4834,
        "lon": 144.796,
        "name": "Hagatna, Guam",
        "region": "Oceania"
    },
    {
        "cca2": "AU",
        "cf_lb_region": "OC",
        "city": "Melbourne, VIC",
        "country": "Australia",
        "iata": "MEL",
        "lat": -37.6733,
        "lon": 144.843,
        "name": "Melbourne, VIC, Australia",
        "region": "Oceania"
    },
    {
        "cca2": "NC",
        "cf_lb_region": "OC",
        "city": "Noumea",
        "country": "New Caledonia",
        "iata": "NOU",
        "lat": -22.0146,
        "lon": 166.213,
        "name": "Noumea, New Caledonia",
        "region": "Oceania"
    },
    {
        "cca2": "AU",
        "cf_lb_region": "OC",
        "city": "Perth, WA",
        "country": "Australia",
        "iata": "PER",
        "lat": -31.9403,
        "lon": 115.967,
        "name": "Perth, WA, Australia",
        "region": "Oceania"
    },
    {
        "cca2": "AU",
        "cf_lb_region": "OC",
        "city": "Sydney, NSW",
        "country": "Australia",
        "iata": "SYD",
        "lat": -33.9461,
        "lon": 151.177,
        "name": "Sydney, NSW, Australia",
        "region": "Oceania"
    },
    {
        "cca2": "PF",
        "cf_lb_region": "OC",
        "city": "Tahiti",
        "country": "French Polynesia",
        "iata": "PPT",
        "lat": -17.5537,
        "lon": -149.607,
        "name": "Tahiti, French Polynesia",
        "region": "Oceania"
    },
    {
        "cca2": "FJ",
        "cf_lb_region": "OC",
        "city": "Suva",
        "country": "Fiji",
        "iata": "SUV",
        "lat": -18.0433,
        "lon": 178.559,
        "name": "Suva, Fiji",
        "region": "Oceania"
    },
    {
        "cca2": "AU",
        "cf_lb_region": "OC",
        "city": "Hobart",
        "country": "Australia",
        "iata": "HBA",
        "lat": -42.8361,
        "lon": 147.51,
        "name": "Hobart, Australia",
        "region": "Oceania"
    }
]